{"type":"FeatureCollection","features":[{"type":"Feature","properties":{"name":"Aromateka","address":"Znamenka Ulitsa, 7/3, Пушкино, Moskovskaya oblast, Russia, 119019","":""},"geometry":{"type":"Point","coordinates":[37.607453,55.749283]}},{"type":"Feature","properties":{"name":"Sens Unique","address":"13 Rue du Roi de Sicile, 75004 Paris -","":""},"geometry":{"type":"Point","coordinates":[2.358783,48.856095]}},{"type":"Feature","properties":{"name":"Basic Crème de la Crème","address":"21 Rue des Élus, 51100 Reims -","":""},"geometry":{"type":"Point","coordinates":[4.0314917,49.2555133]}},{"type":"Feature","properties":{"name":"Printemps","address":"64 Boulevard Haussmann, 75009 Paris,France","":""},"geometry":{"type":"Point","coordinates":[2.328658,48.873909]}},{"type":"Feature","properties":{"name":"Cour des Hommes","address":"11 Rue des Clercs, 57000 Metz, France","":""},"geometry":{"type":"Point","coordinates":[6.174013,49.117584]}},{"type":"Feature","properties":{"name":"slm Lab","address":"24 Rue Berthe,75018 Paris","":""},"geometry":{"type":"Point","coordinates":[2.339826,48.885626]}},{"type":"Feature","properties":{"name":"Diamant Brut","address":"24 Avenue Gallieni 83110 Sanary-sur-Mer","":""},"geometry":{"type":"Point","coordinates":[5.79897,43.117454]}},{"type":"Feature","properties":{"name":"Initio","address":"23 bis Rue Pierre Semard 83000 Toulon","":""},"geometry":{"type":"Point","coordinates":[5.93158029,43.1225904]}},{"type":"Feature","properties":{"name":"Printemps","address":"10 Rue Serpenoise, 57000 Metz","":""},"geometry":{"type":"Point","coordinates":[6.1758345,49.117476]}},{"type":"Feature","properties":{"name":"La Pièce d’Arlette","address":"rue Berthelot, 83000 Toulon","":""},"geometry":{"type":"Point","coordinates":[5.9334913,43.1240868]}},{"type":"Feature","properties":{"name":"La Pièce d’Arlette","address":"16 avenue des îles dor, 83 400 Hyères","":""},"geometry":{"type":"Point","coordinates":[6.1267328,43.12024]}},{"type":"Feature","properties":{"name":"Maison Mood","address":"17 Rue de la Petite Fusterie, 84000 Avignon","":""},"geometry":{"type":"Point","coordinates":[4.804297,43.9497271]}},{"type":"Feature","properties":{"name":"L’Instant","address":"86 Rue Grignan, 13001 Marseille -","":""},"geometry":{"type":"Point","coordinates":[5.37535,43.2917]}},{"type":"Feature","properties":{"name":"Boulet","address":"51, grande Rue, 54000 Nancy","":""},"geometry":{"type":"Point","coordinates":[0.196636,48.0082]}},{"type":"Feature","properties":{"name":"Galeries Lafayette","address":"52 avenue des Champs-Elysées, 75008 PARIS (coming soon)","":""},"geometry":{"type":"Point","coordinates":[2.3156587,48.8760477]}},{"type":"Feature","properties":{"name":"Skins: Amsterdam Centre","address":"Runstraat 11, 1016 GJ Amsterdam","":""},"geometry":{"type":"Point","coordinates":[4.883678,52.368793]}},{"type":"Feature","properties":{"name":"Skins: Amsterdam South","address":"Van Baerlestraat 27, 1071 AN Amsterdam","":""},"geometry":{"type":"Point","coordinates":[4.878624,52.358631]}},{"type":"Feature","properties":{"name":"Skins: Breda","address":"Breda Ginnekenweg 31, 4818 JA Breda","":""},"geometry":{"type":"Point","coordinates":[4.783166,51.573349]}},{"type":"Feature","properties":{"name":"Skins: Den Haag","address":"Wagenstraat 32, 2512 AX Den Haag","":""},"geometry":{"type":"Point","coordinates":[5.959745,52.205641]}},{"type":"Feature","properties":{"name":"Skins: Eindhoven","address":"Hooghuisstraat 33, 5611 GS Eindhoven","":""},"geometry":{"type":"Point","coordinates":[5.477353,51.437609]}},{"type":"Feature","properties":{"name":"Skins: Groningen","address":"Oude Boteringestraat 12, 9712 GH Groningen","":""},"geometry":{"type":"Point","coordinates":[6.564621,53.218943]}},{"type":"Feature","properties":{"name":"Skins: Laren","address":"Laren Naarderstraat 15A, 1251 AX Laren","":""},"geometry":{"type":"Point","coordinates":[5.223326,52.258074]}},{"type":"Feature","properties":{"name":"Skins: Oisterwijk","address":"De Lind 13, 5061 HS Oisterwijk","":""},"geometry":{"type":"Point","coordinates":[5.195261,51.580861]}},{"type":"Feature","properties":{"name":"Skins: Oosterbeek","address":"Utrechtseweg 190, 6862 AW Oosterbeek","":""},"geometry":{"type":"Point","coordinates":[5.840029,51.987509]}},{"type":"Feature","properties":{"name":"Skins: Rotterdam","address":"Kruiskade 75-77, 3012 EE Rotterdam","":""},"geometry":{"type":"Point","coordinates":[4.474311,51.92235]}},{"type":"Feature","properties":{"name":"Skins: Gent","address":"Korenmarkt 16- ‘Oude Postkantoor’, 9000 Gent","":""},"geometry":{"type":"Point","coordinates":[3.721162,51.05428]}},{"type":"Feature","properties":{"name":"Aromateka","address":"Znamenka Ulitsa, 7/3, Пушкино, Moskovskaya oblast, Russia, 119019","":""},"geometry":{"type":"Point","coordinates":[37.607453,55.749283]}},{"type":"Feature","properties":{"name":"Eiffel","address":"Ulitsa Kuybysheva, 26, Vladikavkaz, Северная Осетия-Алания республика","":""},"geometry":{"type":"Point","coordinates":[37.607453,55.749283]}},{"type":"Feature","properties":{"name":"Lukse","address":"Serebrennikovskaya Ulitsa, 31, Novosibirsk","":""},"geometry":{"type":"Point","coordinates":[82.925049,55.026864]}},{"type":"Feature","properties":{"name":"Giorgio","address":"18-1 A Uchitel skaya st.,St. Petersburg","":""},"geometry":{"type":"Point","coordinates":[30.335099,59.93428]}},{"type":"Feature","properties":{"name":"Perfume Bay: Al Ain","address":"Abu Dhabi - United Arab Emirates","":""},"geometry":{"type":"Point","coordinates":[55.808119,24.159075]}},{"type":"Feature","properties":{"name":"Perfume Bay: Abu Dhabi","address":"Marina Mall Luxury Section - Abu Dhabi","":""},"geometry":{"type":"Point","coordinates":[54.320757,24.477385]}},{"type":"Feature","properties":{"name":"Omar","address":"Muscat Oman","":""},"geometry":{"type":"Point","coordinates":[58.564049,23.580222]}},{"type":"Feature","properties":{"name":"L’Odore","address":"Eastern Ring Rd, Ash Shuhada, Riyadh 12486, Saudi Arabia","":""},"geometry":{"type":"Point","coordinates":[46.731373,24.780971]}},{"type":"Feature","properties":{"name":"Maison10","address":"260 5th Ave 2nd floor, New York, NY 10001","":""},"geometry":{"type":"Point","coordinates":[-73.987143,40.745094]}},{"type":"Feature","properties":{"name":"Space 240","address":"240 East 29th st, New York","":""},"geometry":{"type":"Point","coordinates":[-73.978676,40.741717]}},{"type":"Feature","properties":{"name":"Le Secret du Marais (opening soon)","address":"Calle Hortaleza, 75 28004 Madrid","":""},"geometry":{"type":"Point","coordinates":[-3.69778,40.425267]}},{"type":"Feature","properties":{"name":"Zurich","address":"Spitzenhaus : Börsenstrasse 14, 8001 Zürich","":""},"geometry":{"type":"Point","coordinates":[8.540685,47.368124]}},{"type":"Feature","properties":{"name":"Harvey Nichols","address":"109-125 Knightsbridge, Belgravia, London SW1X 7RJ, UK (coming soon)","":""},"geometry":{"type":"Point","coordinates":[-0.159805,51.501584]}},{"type":"Feature","properties":{"name":"Schnitzler","address":"11 Schadow-Arkaden, 40212 Duesseldorf","":""},"geometry":{"type":"Point","coordinates":[6.780477,51.225433]}},{"type":"Feature","properties":{"name":"Parfum Lounge","address":"Max-Planck-Str. 20, 70806 Kornwestheim","":""},"geometry":{"type":"Point","coordinates":[9.18569,48.8616]}},{"type":"Feature","properties":{"name":"Parfuemerie","address":"Jungfernstieg 26 – 28 , 20354 Hambourg","":""},"geometry":{"type":"Point","coordinates":[9.990426,53.553721]}},{"type":"Feature","properties":{"name":"Parfums Uniques","address":"Klenzestrasse 22 (at Gärtnerplatz) , 80469 Munich"},"geometry":{"type":"Point","coordinates":[11.576714,48.132303]}}]}